,City,Country,Latitude,Longitude,Max Temperature (F),Humidity (%),Cloudiness (%),Wind Speed (mph)
0,gat,IL,31.61,34.76,77.0,62,0,2.73
1,hilo,US,19.73,-155.09,84.2,66,40,10.29
2,georgetown,MY,5.41,100.34,77.0,94,20,3.36
3,avarua,CK,-21.21,-159.78,75.2,64,86,10.29
4,mabilao,PH,16.15,120.42,83.35,73,24,3.33
5,taltal,CL,-25.4,-70.48,53.46,59,0,2.91
6,bluff,NZ,-46.6,168.33,50.38,81,100,16.62
7,ushuaia,AR,-54.8,-68.3,32.0,93,90,12.75
8,lubbock,US,33.6,-101.83,93.2,36,40,17.22
9,ahipara,NZ,-35.17,173.17,56.16,58,40,8.19
10,ramban,IN,33.25,75.25,68.05,68,3,2.8
11,torbay,CA,47.67,-52.73,55.99,100,90,10.29
12,saint pete beach,US,27.73,-82.74,84.2,88,90,8.05
13,kovur,IN,14.48,79.98,79.93,78,100,7.23
14,saskylakh,RU,71.92,114.08,46.53,84,100,9.48
15,fernley,US,39.61,-119.25,95.0,12,1,1.99
16,hithadhoo,MV,-0.6,73.08,78.57,82,100,8.63
17,port elizabeth,ZA,-33.92,25.57,48.2,66,0,4.7
18,albany,US,42.6,-73.97,84.99,58,33,2.42
19,lebu,CL,-37.62,-73.65,47.89,78,95,7.2
20,carnarvon,AU,-24.87,113.63,50.0,81,0,8.05
21,hofn,IS,64.25,-15.21,50.09,61,72,9.31
22,methoni,GR,36.82,21.7,82.0,64,0,2.24
23,kaitangata,NZ,-46.28,169.85,51.01,59,82,17.0
24,college,US,64.86,-147.8,62.6,67,90,11.41
25,strezhevoy,RU,60.73,77.59,48.2,87,50,6.71
26,esperance,AU,-33.87,121.9,42.8,100,20,16.11
27,rikitea,PF,-23.12,-134.97,68.23,71,17,15.79
28,dawlatabad,AF,36.41,64.91,76.48,28,0,3.94
29,punta arenas,CL,-53.15,-70.92,37.4,88,40,13.87
30,mantua,IT,45.17,10.78,64.99,91,99,7.92
31,hambantota,LK,6.12,81.12,75.2,100,75,3.36
32,mitu,CO,1.2,-70.17,76.95,79,43,2.08
33,jamestown,US,42.1,-79.24,77.0,73,1,10.29
34,flinders,AU,-34.58,150.86,57.99,87,69,8.99
35,chuy,UY,-33.7,-53.46,47.7,90,100,10.02
36,ust-kuyga,RU,70.02,135.6,79.84,41,10,3.91
37,butaritari,KI,3.07,172.79,82.44,79,20,16.49
38,axim,GH,4.87,-2.24,75.11,87,67,10.38
39,silale,LT,55.49,22.18,56.61,97,98,8.1
40,taoudenni,ML,22.68,-3.98,102.96,10,0,19.39
41,east london,ZA,-33.02,27.91,64.87,27,0,4.81
42,busselton,AU,-33.65,115.33,46.0,78,87,18.34
43,cidreira,BR,-30.18,-50.21,62.87,84,100,9.66
44,verkhoyansk,RU,67.54,133.38,82.26,29,98,3.51
45,sambava,MG,-14.27,50.17,68.72,73,85,18.95
46,tuktoyaktuk,CA,69.45,-133.04,62.6,55,75,4.7
47,hobart,AU,-42.88,147.33,45.0,70,75,6.93
48,souillac,MU,-20.52,57.52,68.0,52,75,17.22
49,puerto ayora,EC,-0.74,-90.35,69.01,92,96,5.99
50,yellowknife,CA,62.46,-114.35,60.8,72,75,4.7
51,plettenberg bay,ZA,-34.05,23.37,66.29,27,0,8.28
52,kainantu,PG,-6.29,145.87,68.32,74,40,5.41
53,naze,JP,28.37,129.48,84.2,88,75,2.24
54,kamaishi,JP,39.27,141.88,69.8,100,75,2.24
55,mar del plata,AR,-38.0,-57.56,42.01,80,75,16.11
56,baghdad,IQ,33.34,44.4,93.2,30,6,6.93
57,mareeba,AU,-17.0,145.43,73.4,69,40,11.41
58,khatanga,RU,71.97,102.5,42.55,85,98,13.15
59,bhakkar,PK,31.63,71.07,94.08,32,0,3.18
60,longyearbyen,SJ,78.22,15.64,51.8,87,0,14.99
61,progreso,MX,21.28,-89.67,93.2,56,75,11.41
62,kuruman,ZA,-27.45,23.43,45.0,55,0,6.53
63,sabla,NG,12.75,4.71,78.31,81,88,7.36
64,sibu,MY,2.3,111.82,75.2,94,40,3.36
65,altoona,US,40.52,-78.39,82.4,61,1,6.93
66,saquena,PE,-4.67,-73.52,74.68,94,82,1.54
67,ancud,CL,-41.87,-73.82,46.0,100,90,13.87
68,vic,ES,41.93,2.25,64.99,85,94,1.12
69,hermanus,ZA,-34.42,19.23,60.01,49,0,1.99
70,zhangye,CN,38.93,100.45,70.52,36,0,2.51
71,kumluca,TR,36.37,30.29,83.82,42,0,2.75
72,saposoa,PE,-6.93,-76.77,76.75,72,69,2.3
73,kilimatinde,TZ,-5.85,34.95,55.08,73,0,2.21
74,binika,IN,21.03,83.8,78.17,81,100,1.21
75,airai,TL,-8.93,125.41,62.91,60,46,4.16
76,upernavik,GL,72.79,-56.15,46.56,79,68,4.45
77,codrington,AU,-38.27,141.97,48.09,77,48,3.13
78,dikson,RU,73.51,80.55,42.21,97,91,12.57
79,port hardy,CA,50.7,-127.42,64.4,63,40,12.75
80,nishihara,JP,26.18,127.76,84.2,89,75,9.17
81,chapais,CA,49.78,-74.85,69.8,68,90,5.82
82,hay river,CA,60.82,-115.8,59.0,72,90,9.17
83,vaini,TO,-21.2,-175.2,75.2,83,75,9.17
84,mataura,NZ,-46.19,168.86,45.75,90,97,5.88
85,merauke,ID,-8.47,140.33,80.58,74,10,16.28
86,coquimbo,CL,-29.95,-71.34,53.6,71,0,6.93
87,am timan,TD,11.03,20.28,74.23,85,8,6.46
88,vao,NC,-22.67,167.48,71.13,81,79,19.15
89,manaure,CO,11.78,-72.44,83.8,69,99,18.95
90,necochea,AR,-38.55,-58.74,39.99,84,94,11.01
91,sinnamary,GF,5.38,-52.95,78.48,87,89,10.22
92,kahului,US,20.89,-156.47,89.6,52,1,28.86
93,bilma,NE,18.69,12.92,84.74,17,10,3.13
94,crossville,US,35.95,-85.03,80.6,69,1,3.78
95,fort saint james,CA,54.43,-124.25,65.7,48,84,4.43
96,lagoa,PT,39.05,-27.98,69.94,79,0,11.12
97,saldanha,ZA,-33.01,17.94,50.0,61,0,1.12
98,yulara,AU,-25.24,130.99,44.6,65,0,13.06
99,zaraza,VE,9.35,-65.32,74.82,96,99,5.28
100,arraial do cabo,BR,-22.97,-42.03,73.4,83,0,14.99
101,clyde river,CA,70.47,-68.59,44.6,87,90,4.7
102,katobu,ID,-4.94,122.53,77.47,72,68,3.47
103,faya,SA,18.39,42.45,66.2,77,100,8.01
104,jinka,ET,5.65,36.65,61.92,93,99,1.16
105,mahebourg,MU,-20.41,57.7,68.0,52,75,17.22
106,ribeira grande,PT,38.52,-28.7,70.07,74,0,7.61
107,beidao,CN,34.57,105.89,67.3,85,100,4.72
108,barrow,US,71.29,-156.79,35.6,80,90,13.87
109,kamina,CD,-8.74,24.99,57.6,46,0,4.05
110,mana,GF,5.66,-53.78,77.7,88,83,8.86
111,stephanskirchen,DE,47.86,12.15,59.0,89,75,3.0
112,jiuquan,CN,39.74,98.52,70.9,37,0,2.86
113,fairbanks,US,64.84,-147.72,62.6,72,75,14.99
114,grindavik,IS,63.84,-22.43,44.6,75,20,20.8
115,jackson,US,42.42,-122.83,91.4,21,1,3.36
116,dauphin,CA,51.15,-100.05,87.8,62,1,6.93
117,padang,ID,-0.95,100.35,77.56,78,99,5.7
118,oskarshamn,SE,57.26,16.45,54.0,92,20,6.87
119,gazojak,TM,41.19,61.4,80.6,23,11,6.53
120,kodiak,US,57.79,-152.41,57.2,87,90,3.36
121,thinadhoo,MV,0.53,72.93,80.73,72,100,2.89
122,palmer,US,42.16,-72.33,81.0,54,75,1.99
123,cootamundra,AU,-34.65,148.03,50.0,72,23,5.01
124,petropavlovsk-kamchatskiy,RU,53.05,158.65,57.2,82,75,2.24
125,bambous virieux,MU,-20.34,57.76,68.0,52,75,17.22
126,svetlaya,RU,46.54,138.33,62.2,74,29,4.07
127,presidencia roque saenz pena,AR,-26.79,-60.44,44.01,89,100,4.74
128,qaanaaq,GL,77.48,-69.36,48.0,54,0,2.01
129,hasaki,JP,35.73,140.83,77.0,94,75,1.12
130,victoria,HK,22.29,114.16,86.0,79,100,8.01
131,kasempa,ZM,-13.46,25.83,51.67,64,0,9.37
132,severo-kurilsk,RU,50.68,156.12,52.9,76,100,5.57
133,pevek,RU,69.7,170.31,45.9,69,92,5.86
134,bathsheba,BB,13.22,-59.52,82.4,78,40,19.46
135,cape town,ZA,-33.93,18.42,50.0,66,0,5.82
136,belen,TR,36.49,36.22,80.6,69,0,9.17
137,ust-karsk,RU,52.7,118.81,77.22,61,90,1.28
138,pisco,PE,-13.7,-76.22,63.0,77,0,23.04
139,bredasdorp,ZA,-34.53,20.04,46.4,87,0,4.7
140,lavrentiya,RU,65.58,-171.0,49.66,68,94,4.32
141,nemuro,JP,43.32,145.57,57.99,86,64,8.41
142,fortuna,US,40.6,-124.16,69.01,72,20,14.99
143,honningsvag,NO,70.98,25.97,57.24,82,5,15.79
144,kapaa,US,22.08,-159.32,84.2,70,40,14.99
145,west plains,US,36.73,-91.85,89.6,52,20,6.93
146,santander,ES,43.46,-3.8,66.99,82,40,4.7
147,coruripe,BR,-10.13,-36.18,72.99,80,34,11.18
148,usinsk,RU,65.99,57.53,54.32,76,27,4.36
149,lamar,US,33.67,-95.58,91.99,55,1,11.41
150,atuona,PF,-9.8,-139.03,78.8,80,23,18.34
151,lock haven,US,41.14,-77.45,84.2,51,1,4.7
152,katsuura,JP,35.13,140.3,80.6,94,75,5.82
153,faanui,PF,-16.48,-151.75,77.72,75,0,19.19
154,kez,RU,57.9,53.72,56.12,98,100,2.06
155,trairi,BR,-3.28,-39.27,77.27,81,5,10.65
156,cascais,PT,38.7,-9.42,66.99,93,0,21.88
157,blackwater,AU,-23.58,148.88,66.81,69,8,3.62
158,anchorage,US,61.22,-149.9,59.0,87,90,9.17
159,boralday,KZ,43.36,76.86,62.6,93,75,4.47
160,vestmannaeyjar,IS,63.44,-20.27,50.2,71,11,1.01
161,hengshui,CN,37.73,115.7,84.67,49,63,4.9
162,maniitsoq,GL,65.42,-52.9,46.56,92,100,4.81
163,mount isa,AU,-20.73,139.5,66.2,45,0,4.7
164,cockburn town,TC,21.46,-71.14,82.4,69,40,17.22
165,new norfolk,AU,-42.78,147.06,44.01,87,100,2.37
166,miedzyrzec podlaski,PL,51.99,22.78,58.6,92,24,7.67
167,cairns,AU,-16.92,145.77,73.4,69,40,11.41
168,northam,GB,51.03,-4.22,63.0,97,99,8.99
169,saint-philippe,RE,-21.36,55.77,64.4,63,90,14.99
170,half moon bay,US,37.46,-122.43,73.99,82,90,6.93
171,sao filipe,CV,14.9,-24.5,76.62,81,25,3.51
172,xining,CN,36.62,101.77,58.87,72,91,2.39
173,barcelona,ES,41.39,2.16,78.8,78,20,2.24
174,shakhtinsk,KZ,49.71,72.59,59.0,82,40,4.47
175,tocopilla,CL,-22.09,-70.2,57.92,60,0,14.5
176,kawalu,ID,-7.38,108.21,70.47,89,94,1.59
177,port alfred,ZA,-33.59,26.89,67.17,26,0,11.21
178,tuatapere,NZ,-46.13,167.68,49.42,80,100,6.31
179,nicoya,CR,10.15,-85.45,84.2,70,72,4.7
180,pavlodar,KZ,52.3,76.95,59.0,100,40,4.47
181,rio grande,BR,-32.03,-52.1,48.99,94,100,5.01
182,pangai,TO,-19.8,-174.35,78.8,83,40,16.11
183,bengkulu,ID,-3.8,102.27,74.43,88,89,4.92
184,bobo dioulasso,BF,11.18,-4.3,75.2,94,99,4.7
185,aripuana,BR,-9.17,-60.63,82.8,49,78,0.98
186,nuevo progreso,MX,23.17,-97.95,93.99,46,32,8.99
187,paracatu,BR,-17.22,-46.87,64.76,56,0,1.39
188,honiara,SB,-9.43,159.95,87.8,70,20,10.29
189,nikolskoye,RU,59.7,30.79,53.6,81,97,6.71
190,mandera,KE,3.94,41.87,76.42,52,41,19.46
191,bethel,US,41.37,-73.41,79.0,69,1,4.7
192,chitungwiza,ZW,-18.01,31.08,43.65,92,18,5.77
193,la concepcion,PA,8.52,-82.62,78.8,88,90,3.36
194,umm lajj,SA,25.02,37.27,85.75,53,12,4.63
195,gilgit,PK,35.92,74.31,76.77,40,28,0.4
196,chokurdakh,RU,70.63,147.92,77.29,43,37,6.67
197,fairlie,GB,55.76,-4.86,57.0,93,99,7.61
198,cayenne,GF,4.93,-52.33,80.6,83,96,5.82
199,ust-koksa,RU,50.27,85.61,58.26,85,100,4.25
200,laramie,US,41.31,-105.59,75.99,27,20,3.36
201,sitka,US,57.05,-135.33,57.2,82,90,6.93
202,jinchang,CN,38.5,102.17,72.46,31,9,4.36
203,general roca,AR,-39.03,-67.58,44.6,56,6,6.93
204,impfondo,CG,1.64,18.07,74.03,73,29,1.61
205,mount gambier,AU,-37.83,140.77,41.0,93,70,4.7
206,leningradskiy,RU,69.38,178.42,49.26,64,98,13.15
207,ahuimanu,US,21.44,-157.84,89.6,62,20,13.87
208,norman wells,CA,65.28,-126.83,71.6,37,20,12.75
209,cherbourg,FR,49.64,-1.61,63.0,93,90,13.87
210,castro,BR,-24.79,-50.01,58.08,75,0,4.0
211,merrill,US,45.18,-89.68,82.4,61,40,8.05
212,jeremie,HT,18.65,-74.12,81.79,74,43,2.8
213,novopokrovka,UA,49.84,36.55,57.2,87,72,2.24
214,skotterud,NO,59.98,12.13,55.4,93,23,4.7
215,haines junction,CA,60.75,-137.51,59.9,50,97,10.87
216,dolores,AR,-36.31,-57.68,41.09,69,1,9.48
217,kamenka,RU,51.32,42.77,55.0,83,3,2.13
218,alofi,NU,-19.06,-169.92,78.8,69,4,18.34
219,byron bay,AU,-28.65,153.62,60.8,93,75,9.17
220,coihaique,CL,-45.58,-72.07,41.0,75,90,4.7
221,ardmore,US,34.17,-97.14,93.0,41,40,10.29
222,kavieng,PG,-2.57,150.8,85.78,70,24,14.14
223,marquette,US,46.53,-87.63,82.99,51,0,5.01
224,nanortalik,GL,60.14,-45.24,45.48,90,100,6.85
225,tasiilaq,GL,65.61,-37.64,42.8,87,87,4.7
226,lorengau,PG,-2.02,147.27,84.34,77,46,11.72
227,gannan,CN,47.91,123.5,86.5,36,26,10.33
228,ayan,RU,56.45,138.17,56.14,65,16,4.7
229,broome,US,42.25,-75.83,79.0,54,1,6.93
230,dingle,PH,11.0,122.67,81.1,79,100,1.34
231,horsham,GB,51.06,-0.33,63.0,88,40,8.05
232,kiama,AU,-34.68,150.87,57.99,86,71,1.99
233,muros,ES,42.78,-9.06,64.99,80,1,1.99
234,ponta do sol,PT,32.67,-17.1,73.4,43,20,21.92
235,gimli,CA,50.63,-96.99,90.0,96,24,8.01
236,morondava,MG,-20.28,44.28,68.61,55,0,13.67
237,houma,US,29.6,-90.72,79.0,88,1,9.17
238,fort nelson,CA,58.81,-122.7,71.6,53,75,6.93
239,husavik,IS,66.04,-17.34,44.6,70,90,8.05
240,carnduff,CA,49.17,-101.8,82.99,64,83,5.01
241,talcahuano,CL,-36.72,-73.12,50.0,71,90,5.82
242,hagere selam,ET,6.48,38.52,50.05,100,97,3.09
243,namibe,AO,-15.2,12.15,65.71,83,0,4.14
244,nioro,GM,13.35,-15.75,79.16,85,49,5.35
245,awbari,LY,26.59,12.78,76.55,21,0,5.5
246,japura,ID,-0.32,102.35,73.24,96,63,3.04
247,ukiah,US,39.15,-123.21,95.0,23,1,12.75
248,omsukchan,RU,62.53,155.8,79.23,29,31,3.58
249,shiyan,CN,32.65,110.78,72.75,83,80,1.07
250,llanes,ES,43.42,-4.75,66.0,98,20,1.99
251,sampit,ID,-2.53,112.95,74.77,85,59,3.91
252,mastic beach,US,40.77,-72.85,75.99,88,90,5.55
253,honolulu,US,21.31,-157.86,89.6,43,40,14.99
254,char bhadrasan,BD,23.32,90.22,80.6,83,75,5.66
255,southend-on-sea,GB,51.54,0.71,63.0,82,100,11.41
256,ourinhos,BR,-22.98,-49.87,63.82,59,0,2.8
257,inhambane,MZ,-23.86,35.38,65.44,77,24,11.34
258,hanzhong,CN,33.07,107.03,72.7,88,98,0.58
259,karaman,TR,37.08,33.25,61.39,43,0,6.26
260,talnakh,RU,69.49,88.4,48.2,81,1,11.18
261,guaruja,BR,-23.99,-46.26,73.99,100,0,2.64
262,tecoanapa,MX,16.52,-98.75,84.99,70,25,7.94
263,margate,GB,51.38,1.39,64.0,84,88,5.99
264,slupsk,PL,54.46,17.03,56.55,94,40,8.9
265,igrim,RU,63.19,64.42,49.41,79,4,5.28
266,lao cai,VN,22.48,103.95,79.61,81,75,0.2
267,ron phibun,TH,8.18,99.85,80.6,94,75,1.54
268,calama,CL,-22.47,-68.93,53.6,20,0,12.75
269,pangnirtung,CA,66.15,-65.71,50.0,76,75,4.7
270,vestmanna,FO,62.16,-7.17,50.0,100,100,10.29
271,samarai,PG,-10.62,150.67,79.48,86,33,14.07
272,simpang,ID,-1.27,104.08,74.07,96,74,3.78
273,jumla,NP,29.27,82.18,61.0,70,71,0.56
274,vardo,NO,70.37,31.11,55.72,88,6,14.63
275,abu kamal,SY,34.45,40.92,82.44,32,0,8.84
276,oksfjord,NO,70.24,22.35,62.6,77,90,5.82
277,buala,SB,-8.14,159.59,85.17,72,78,11.86
278,vidim,RU,56.41,103.11,58.23,62,0,4.16
279,nawa,IN,27.02,75.0,79.56,76,34,1.07
280,gladstone,AU,-23.85,151.25,66.2,72,90,5.82
281,oistins,BB,13.07,-59.53,82.4,78,40,19.46
282,egvekinot,RU,66.32,-179.17,52.41,62,85,5.55
283,nova borova,UA,50.69,28.63,57.27,72,57,8.14
284,korla,CN,41.76,86.15,81.0,75,0,3.0
285,seoul,KR,37.57,126.98,75.2,64,90,4.7
286,deputatskiy,RU,69.3,139.9,76.75,31,97,1.57
287,thompson,CA,55.74,-97.86,69.8,94,90,3.36
288,hami,CN,42.8,93.45,77.68,33,0,5.93
289,kromy,RU,52.69,35.77,51.44,86,15,1.59
290,hamilton,US,39.18,-84.53,88.0,45,40,5.82
291,umea,SE,63.83,20.26,52.0,93,92,5.82
292,jahazpur,IN,25.62,75.28,78.6,82,48,1.16
293,makakilo city,US,21.35,-158.09,89.6,43,20,10.29
294,severomuysk,RU,56.15,113.43,60.69,69,28,4.07
295,leshukonskoye,RU,64.9,45.76,55.8,97,41,2.84
296,evensk,RU,61.95,159.23,60.33,69,20,10.29
297,sorata,BO,-15.77,-68.63,44.87,77,92,1.28
298,aswan,EG,24.09,32.91,88.09,20,19,8.46
299,te anau,NZ,-45.42,167.72,47.23,81,100,5.88
300,nivala,FI,63.92,24.97,50.0,93,100,8.01
301,itoman,JP,26.12,127.67,84.2,89,75,9.17
302,porto novo,BJ,6.5,2.6,75.2,94,20,10.29
303,adra,ES,36.75,-3.02,78.8,83,0,1.12
304,sorland,NO,67.67,12.69,52.83,91,100,3.29
305,larsnes,NO,62.2,5.58,50.0,87,18,1.01
306,lagos,NG,6.58,3.75,77.0,88,20,3.36
307,sabang,ID,5.89,95.32,82.22,74,86,4.25
308,santa lucia,ES,27.91,-15.54,71.6,78,20,31.09
309,atagay,RU,55.1,99.39,57.6,65,59,4.05
310,saint george,US,37.1,-113.58,95.0,26,1,6.93
311,terre-de-bas,GP,15.85,-61.64,86.0,74,20,10.29
312,anadyr,RU,64.75,177.48,60.8,67,57,15.66
313,potsdam,DE,52.4,13.07,66.0,82,61,4.97
314,maarianhamina,AX,60.1,19.93,42.8,100,20,1.12
315,mercedes,AR,-34.65,-59.43,46.0,60,0,1.01
316,gallup,US,35.53,-108.74,78.8,39,40,10.29
317,beringovskiy,RU,63.05,179.32,53.69,69,89,8.1
318,henties bay,NA,-22.12,14.28,66.0,19,0,1.99
319,kaitong,CN,44.81,123.15,84.31,42,100,5.79
320,ngawen,ID,-7.0,111.31,72.25,78,100,6.44
321,beloha,MG,-25.17,45.05,58.46,78,1,10.4
322,luanda,AO,-8.84,13.23,71.6,88,13,2.24
323,navalmoral de la mata,ES,39.89,-5.54,78.35,28,0,0.96
324,abapo,BO,-18.83,-63.47,63.48,61,100,1.74
325,araouane,ML,18.9,-3.53,97.12,30,4,17.56
326,ayr,GB,55.46,-4.63,59.0,93,75,11.41
327,iqaluit,CA,63.75,-68.51,50.0,71,75,8.32
328,provideniya,RU,64.38,-173.3,50.95,64,100,0.87
329,auki,SB,-8.77,160.7,85.6,68,46,7.18
330,karratha,AU,-20.74,116.85,67.28,44,0,15.05
331,igdir,TR,39.92,44.05,69.8,64,75,11.41
332,adrar,MR,20.5,-10.07,94.73,23,6,11.77
333,kalabo,ZM,-14.97,22.68,52.36,59,0,6.44
334,kaeo,NZ,-35.1,173.78,55.99,3,62,1.01
335,bell ville,AR,-32.63,-62.69,46.0,40,0,3.0
336,khandyga,RU,62.67,135.6,81.28,40,0,2.51
337,huilong,CN,31.81,121.66,78.01,84,22,10.47
338,wuchang,CN,44.91,127.15,80.19,54,2,5.7
339,yumen,CN,40.28,97.2,70.21,40,0,11.21
340,cabo san lucas,MX,22.89,-109.91,93.0,61,5,13.87
341,darnah,LY,32.77,22.64,75.92,81,0,17.11
342,goderich,CA,43.75,-81.72,75.99,80,1,8.75
343,robertsport,LR,6.75,-11.37,75.88,87,100,13.76
344,port lincoln,AU,-34.73,135.87,54.43,81,0,2.15
345,mporokoso,ZM,-9.37,30.12,53.01,67,0,9.8
346,san policarpo,PH,12.18,125.51,84.22,72,88,0.6
347,praia,CV,14.92,-23.51,80.6,74,75,11.41
348,tabas,IR,33.6,56.92,89.6,18,0,6.93
349,port blair,IN,11.67,92.75,81.14,80,37,4.5
350,cachoeira do sul,BR,-30.04,-52.89,54.05,91,100,9.1
351,klaksvik,FO,62.23,-6.59,50.0,100,100,10.29
352,kushmurun,KZ,52.45,64.63,59.23,91,95,14.43
353,hervey bay,AU,-25.3,152.85,64.0,97,20,5.99
354,lompoc,US,34.64,-120.46,68.0,68,12,14.99
355,tiznit,MA,29.58,-9.5,75.52,46,0,1.43
356,ponta delgada,PT,37.73,-25.67,66.2,77,40,4.7
357,vila franca do campo,PT,37.72,-25.43,66.2,77,40,4.7
358,kittery,US,43.09,-70.74,77.0,57,75,4.7
359,the valley,AI,18.22,-63.06,84.2,79,40,12.75
360,tokonou,GN,9.65,-9.78,70.02,99,100,4.18
361,bremervorde,DE,53.48,9.13,59.0,67,25,4.23
362,huangnihe,CN,43.56,128.02,69.84,76,27,8.21
363,acarau,BR,-2.89,-40.12,77.61,79,27,14.25
364,bhatkal,IN,13.97,74.57,77.74,83,100,7.99
365,constitucion,CL,-35.33,-72.42,47.55,72,0,5.57
366,tilichiki,RU,60.47,166.1,67.26,52,0,4.03
367,arlit,NE,18.74,7.39,88.29,41,41,8.61
368,lodja,CD,-3.48,23.43,72.0,65,7,1.81
369,mutare,ZW,-18.97,32.67,49.5,95,52,3.62
370,talaya,RU,61.38,152.75,75.2,33,53,5.53
371,avera,US,33.19,-82.53,88.0,74,90,5.82
372,rize,TR,40.9,40.89,51.91,97,64,1.41
373,la ronge,CA,55.1,-105.28,75.2,60,40,9.17
374,basco,PH,20.45,121.97,85.53,77,100,11.54
375,pandan,PH,14.05,124.17,85.08,68,87,3.51
376,tiksi,RU,71.69,128.87,58.91,69,26,8.84
377,bosaso,SO,11.28,49.18,87.87,45,15,25.34
378,varzea da palma,BR,-17.6,-44.73,70.88,53,6,6.33
379,zyryanovsk,KZ,49.74,84.27,61.97,93,100,1.79
380,ostersund,SE,63.18,14.64,46.4,100,98,13.87
381,walvis bay,NA,-22.96,14.51,69.8,14,0,9.17
382,catumbela,AO,-12.43,13.55,68.0,80,11,4.14
383,peniche,PT,39.36,-9.38,66.0,88,0,10.0
384,rafai,CF,4.95,23.92,69.48,97,100,1.88
385,beaverlodge,CA,55.22,-119.44,64.4,45,75,18.34
386,kumphawapi,TH,17.11,103.01,78.8,88,20,3.36
387,los llanos de aridane,ES,28.66,-17.92,71.6,78,10,16.11
388,nenjiang,CN,49.18,125.22,81.43,52,71,11.18
389,sao felix do xingu,BR,-6.64,-51.99,77.13,60,82,1.43
390,salinopolis,BR,-0.61,-47.36,80.06,83,81,12.1
391,nizip,TR,37.01,37.79,78.8,61,0,6.53
392,geraldton,AU,-28.77,114.6,46.4,70,0,19.46
393,poya,NC,-21.35,165.15,77.56,67,39,7.4
394,bindura,ZW,-17.3,31.33,46.24,91,48,2.66
395,guerrero negro,MX,27.98,-114.06,72.27,61,0,17.78
396,maltahohe,NA,-24.83,16.98,47.8,50,0,10.13
397,juneau,US,58.3,-134.42,60.01,87,90,10.29
398,hastings,GB,50.86,0.57,61.0,95,99,1.99
399,jennings,US,38.72,-90.26,91.0,59,1,6.93
400,meulaboh,ID,4.14,96.13,75.72,88,68,3.87
401,canutama,BR,-6.53,-64.38,80.37,60,36,1.59
402,carbonia,IT,39.17,8.52,77.0,83,0,13.87
403,kungurtug,RU,50.6,97.52,60.71,55,44,0.72
404,raha,IN,26.23,92.52,78.06,92,98,2.84
405,hualmay,PE,-11.1,-77.61,61.03,84,23,10.85
406,coihueco,CL,-36.62,-71.83,48.2,76,40,3.36
407,tupancireta,BR,-29.08,-53.84,49.48,95,100,12.88
408,boguchany,RU,58.38,97.45,56.97,76,3,2.89
409,yarmouth,US,41.71,-70.23,77.0,69,1,3.36
410,kruisfontein,ZA,-34.0,24.73,61.27,27,0,11.16
411,roma,US,43.21,-75.46,82.4,54,1,5.82
412,manacapuru,BR,-3.3,-60.62,80.6,88,75,1.61
413,saint-ambroise,CA,48.55,-71.33,82.4,39,75,5.82
414,nouadhibou,MR,20.93,-17.03,71.6,83,0,9.17
415,morales,CO,2.76,-76.62,61.7,90,93,1.16
416,srednekolymsk,RU,67.45,153.68,86.2,28,64,7.36
417,mazyr,BY,52.05,29.25,56.77,69,81,8.03
418,marshall,US,34.38,-86.33,86.0,55,1,5.82
419,shingu,JP,33.73,135.98,75.2,94,75,10.29
420,paamiut,GL,61.99,-49.67,47.43,93,96,6.29
421,prince rupert,CA,54.32,-130.32,59.0,82,90,3.36
422,hovd,MN,48.01,91.64,68.45,49,0,2.44
423,blagoyevo,RU,63.37,47.92,54.88,96,38,0.98
424,kamarion,GR,36.8,25.82,75.0,65,0,1.99
425,cherskiy,RU,68.75,161.3,78.24,48,10,5.32
426,simao,CN,22.79,100.97,68.67,88,71,1.41
427,jishou,CN,28.32,109.72,77.52,90,100,1.88
428,ilulissat,GL,69.22,-51.1,46.4,87,100,8.05
429,ekhabi,RU,53.51,142.97,57.88,69,0,7.63
430,eureka,US,40.8,-124.16,69.01,58,20,3.0
431,owando,CG,-0.48,15.9,74.34,77,28,2.71
432,seremban,MY,2.73,101.94,77.0,88,20,1.92
433,khorol,UA,49.78,33.28,56.62,74,5,6.91
434,harper,LR,4.38,-7.72,75.27,85,71,9.46
435,waingapu,ID,-9.66,120.26,75.04,66,42,11.23
436,biltine,TD,14.53,20.92,83.41,58,92,8.55
437,berlevag,NO,70.86,29.09,56.88,84,15,16.22
438,comodoro rivadavia,AR,-45.87,-67.5,42.8,62,72,17.22
439,mazagao,BR,-0.12,-51.29,80.6,100,75,3.36
440,fraserburgh,GB,57.69,-2.02,55.99,12,100,5.99
441,kozhva,RU,65.11,57.05,55.96,66,95,4.45
442,san patricio,MX,19.22,-104.7,86.0,79,75,5.82
443,ushtobe,KZ,45.25,77.98,69.96,63,64,6.22
444,cap malheureux,MU,-19.98,57.61,68.0,57,19,7.0
445,arcata,US,40.87,-124.08,68.0,68,1,10.29
446,arona,ES,28.1,-16.68,75.0,78,3,8.05
447,brandon,US,27.94,-82.29,86.0,74,75,5.82
448,vanimo,PG,-2.67,141.3,85.42,63,91,7.0
449,saint-joseph,RE,-21.37,55.62,64.4,63,90,14.99
450,iisalmi,FI,63.56,27.19,53.6,87,100,12.75
451,paris,FR,48.85,2.35,68.0,68,40,3.36
452,banda aceh,ID,5.56,95.32,79.05,78,93,4.47
453,kirakira,SB,-10.45,161.92,83.57,76,39,15.73
454,labuhan,ID,-6.88,112.21,74.34,77,100,12.8
455,aksay,RU,47.26,39.87,62.01,67,61,4.47
456,ikungi,TZ,-5.13,34.77,52.65,76,0,9.46
457,salalah,OM,17.02,54.09,78.8,88,75,8.05
458,bardiyah,LY,31.76,25.09,74.03,82,0,15.3
459,san quintin,MX,30.48,-115.95,69.94,67,0,12.39
460,ulladulla,AU,-35.35,150.47,55.4,100,75,1.1
461,bubaque,GW,11.28,-15.83,80.33,84,100,16.58
462,kabala,SL,9.58,-11.55,70.29,98,100,5.14
463,batemans bay,AU,-35.72,150.18,53.01,78,98,1.01
464,daru,PG,-9.08,143.21,78.71,85,89,17.67
465,emerald,AU,-23.53,148.17,64.0,82,40,4.7
466,kidal,ML,18.44,1.41,86.31,48,75,5.41
467,jacareacanga,BR,-6.22,-57.75,79.97,57,38,1.14
468,ostrovnoy,RU,68.05,39.51,56.46,91,21,10.92
469,leirvik,NO,59.78,5.5,55.0,80,13,3.0
470,altay,CN,47.87,88.12,67.69,53,35,3.27
471,stornoway,GB,58.21,-6.39,55.0,90,100,9.24
472,caluquembe,AO,-13.78,14.68,48.97,64,0,2.08
473,tura,IN,25.52,90.22,73.94,97,100,3.89
474,rawson,AR,-43.3,-65.1,42.8,64,55,20.2
475,mgandu,TZ,-5.95,34.13,53.91,70,0,9.73
476,amapa,BR,1.0,-52.0,72.46,98,80,2.28
477,revelstoke,CA,50.98,-118.2,64.4,68,75,11.41
478,nova zagora,BG,42.48,26.02,68.0,82,5,2.24
479,luderitz,NA,-26.65,15.16,69.8,22,0,8.05
480,matamoros,MX,25.53,-103.25,93.2,34,75,4.7
481,pacifica,US,37.61,-122.49,66.2,59,20,17.22
482,tual,ID,-5.67,132.75,79.72,78,66,20.96
483,viedma,AR,-40.81,-63.0,39.99,76,33,4.0
484,karasjok,NO,69.47,25.51,59.0,87,70,14.99
485,niono,ML,14.25,-5.99,83.7,64,64,15.59
486,najran,SA,17.49,44.13,84.2,30,100,4.7
487,rio gallegos,AR,-51.62,-69.22,35.6,91,75,8.05
488,havre,FR,49.58,0.33,64.4,82,90,10.29
489,san cristobal,VE,7.77,-72.22,86.0,51,40,13.87
490,abeche,TD,13.83,20.83,80.64,63,100,6.58
491,bethanien,NA,-26.5,17.16,55.6,37,0,9.6
492,louga,RU,58.74,29.85,56.23,80,100,7.27
493,saint-felicien,CA,48.65,-72.45,78.8,44,75,10.29
494,odweyne,SO,9.41,45.06,71.78,57,28,18.1
495,evanston,US,42.04,-87.69,82.99,61,1,6.93
496,khanpur,PK,28.65,70.66,95.43,43,0,8.12
497,parrita,CR,9.52,-84.32,69.8,88,75,5.82
498,qujing,CN,25.48,103.78,65.48,86,93,8.52
499,caravelas,BR,-17.71,-39.25,69.44,79,5,4.85
500,aksu,CN,41.12,80.26,75.45,34,3,1.34
501,namatanai,PG,-3.67,152.43,84.96,70,0,9.95
502,kota tinggi,MY,1.74,103.9,75.2,94,20,1.34
503,risaralda,CO,5.17,-75.77,71.6,88,40,4.7
504,koltubanovskiy,RU,52.94,52.03,56.59,86,52,4.16
505,asfi,MA,32.3,-9.24,71.33,84,0,9.24
506,sola,VU,-13.88,167.55,80.24,82,85,28.01
507,erenhot,CN,43.65,111.98,73.45,63,100,18.39
508,leon,MX,21.12,-101.67,84.2,32,40,1.23
509,chiang rai,TH,19.91,99.83,77.0,100,20,3.36
510,zhigansk,RU,66.77,123.37,64.65,68,81,7.78
511,vilyuysk,RU,63.76,121.62,63.9,95,98,3.27
512,onega,RU,63.91,38.14,51.21,84,0,3.31
513,harbour breton,CA,47.48,-55.8,59.81,95,50,7.23
514,kisangani,CD,0.52,25.2,71.06,94,65,0.54
515,narsaq,GL,60.92,-46.05,53.6,76,98,5.82
516,santa cruz de la palma,ES,28.68,-17.76,71.6,78,30,16.11
517,ternate,ID,0.8,127.4,81.48,75,96,3.85
518,puerto baquerizo moreno,EC,-0.9,-89.6,68.58,86,84,12.64
519,saint-augustin,CA,51.23,-58.65,62.96,87,52,2.91
520,troitskoye,RU,52.98,84.68,61.88,94,60,7.81
521,salamiyah,SY,35.01,37.05,69.96,73,0,10.47
522,pedregulho,BR,-20.26,-47.48,60.71,54,0,3.51
523,manicore,BR,-5.81,-61.3,84.2,74,10,1.99
524,tazovskiy,RU,67.47,78.7,49.82,71,2,11.43
525,ust-nera,RU,64.57,143.2,84.79,27,18,2.64
526,labis,MY,2.38,103.02,75.4,88,22,0.78
527,santa luzia,BR,-19.77,-43.85,66.2,77,40,5.82
528,newton stewart,GB,54.96,-4.48,59.0,93,75,11.41
529,itaqui,BR,-29.13,-56.55,47.44,90,100,10.78
530,bonoua,CI,5.27,-3.6,75.2,100,40,3.36
531,pochutla,MX,15.74,-96.47,84.2,74,75,5.82
532,fujieda,JP,34.87,138.27,77.0,94,75,1.12
533,kijini,TZ,-5.85,39.32,74.84,76,87,14.18
534,sembakung,ID,3.82,117.25,77.52,84,100,2.33
535,amuntai,ID,-2.42,115.25,73.26,94,88,0.78
536,takoradi,GH,4.88,-1.76,75.15,87,57,10.47
537,galesong,ID,-5.32,119.37,68.0,100,20,2.24
538,ciudad bolivar,VE,8.12,-63.55,80.55,80,67,3.04
539,mackay,AU,-21.15,149.2,66.2,82,90,11.41
540,chandler,US,33.31,-111.84,104.0,27,20,4.7
541,svetlyy,RU,54.67,20.13,60.8,87,75,6.71
542,kinkala,CG,-4.36,14.76,73.29,53,19,6.6
543,kaohsiung,TW,22.62,120.31,86.0,74,75,6.93
544,challans,FR,46.84,-1.87,63.0,88,70,5.82
545,komotini,GR,41.12,25.4,67.57,64,1,7.02
546,carutapera,BR,-1.2,-46.02,78.01,82,94,7.65
547,grand-santi,GF,4.25,-54.38,73.29,96,89,2.75
548,dustlik,UZ,40.52,68.04,72.59,40,11,2.93
549,sale,MA,34.04,-6.82,73.99,88,0,4.7
550,dunedin,NZ,-45.87,170.5,55.99,46,93,11.01
551,kokopo,PG,-4.35,152.26,85.93,64,0,11.43
552,bowen,AU,-20.02,148.23,72.0,88,13,5.82
553,capelle,DE,51.73,7.59,64.0,88,15,5.82
554,manavalakurichi,IN,8.13,77.3,78.8,88,40,2.24
555,amahai,ID,-3.33,128.92,79.3,81,52,7.67
556,alasehir,TR,38.35,28.52,71.01,44,0,5.99
557,sompeta,IN,18.93,84.6,81.43,77,80,6.11
558,diamantino,BR,-14.41,-56.45,77.59,35,69,4.07
559,kutum,SD,14.2,24.67,81.63,34,83,4.32
560,almaty,KZ,43.25,76.95,62.6,93,75,4.47
561,stoughton,US,42.13,-71.1,78.8,61,1,5.82
562,tutoia,BR,-2.76,-42.27,79.21,80,71,10.22
563,neka,IR,36.65,53.3,77.0,88,40,9.17
564,hobyo,SO,5.35,48.53,77.04,73,78,24.25
565,raga,SS,8.46,25.68,70.12,89,97,5.73
566,masvingo,ZW,-20.06,30.83,48.27,82,52,5.93
567,indramayu,ID,-6.33,108.32,76.17,74,97,8.08
568,dharchula,IN,29.85,80.53,67.62,75,81,0.56
